{"type":"FeatureCollection","crs":{"type":"name","properties":{"name":"EPSG:4326"}},"features":[{"type":"Feature","id":1,"geometry":{"type":"Point","coordinates":[-82.3515202736932,28.1955167509997]},"properties":{"OBJECTID":1,"NAME":"FLORIDA HOSPITAL WESLEY CHAPEL","ADDRESS":"2600 BRUCE B DOWNS BLVD","CITY":"WESLEY CHAPEL FL 33544","CAPACITY":83,"PHONE":"(813) 929-5000","TYPE":"Hospital","SUBTYPE":" ","OWNER":"PASCO-PINELLAS HILLSBOROUGH COMMUNITY HEALTH SYST*","NUMBER":0,"VPARCEL":"30 26 20 0000 00200 0010","CALLOUT":9,"EASID":null,"created_user":"SDE","created_date":"Tue, 17 Apr 2018 13:49:16 GMT","last_edited_user":"DJOHNSON","last_edited_date":"Fri, 23 Jun 2023 13:04:35 GMT"}},{"type":"Feature","id":2,"geometry":{"type":"Point","coordinates":[-82.1997457774715,28.3479923592299]},"properties":{"OBJECTID":2,"NAME":"BAYFRONT HEALTH DADE CITY","ADDRESS":"13100 FORT KING RD","CITY":"DADE CITY FL 33525","CAPACITY":120,"PHONE":"(352) 521-1100","TYPE":"Hospital","SUBTYPE":" ","OWNER":"PASCO REGIONAL MEDICAL CENTER LLC","NUMBER":0,"VPARCEL":"34 24 21 0000 13900 0000","CALLOUT":11,"EASID":null,"created_user":"SDE","created_date":"Tue, 17 Apr 2018 13:49:16 GMT","last_edited_user":"DJOHNSON","last_edited_date":"Fri, 23 Jun 2023 13:04:46 GMT"}},{"type":"Feature","id":3,"geometry":{"type":"Point","coordinates":[-82.4897525686709,28.2962384127427]},"properties":{"OBJECTID":3,"NAME":"FLORIDA HOSPITAL AT CONNERTON LONG TERM ACUTE CARE HOSPITAL","ADDRESS":"9441 HEALTH CENTER DR","CITY":"LAND O LAKES FL 34637","CAPACITY":50,"PHONE":"(813) 903-3700","TYPE":"Hospital","SUBTYPE":" ","OWNER":"UNIVERSITY COMMUNITY HOSPITAL INC","NUMBER":0,"VPARCEL":"22 25 18 0080 2A200 0000","CALLOUT":6,"EASID":null,"created_user":"SDE","created_date":"Tue, 17 Apr 2018 13:49:16 GMT","last_edited_user":"DJOHNSON","last_edited_date":"Fri, 23 Jun 2023 13:04:22 GMT"}},{"type":"Feature","id":4,"geometry":{"type":"Point","coordinates":[-82.1860112134056,28.2609677924542]},"properties":{"OBJECTID":4,"NAME":"FLORIDA HOSPITAL ZEPHYRHILLS","ADDRESS":"7050 GALL BLVD","CITY":"ZEPHYRHILLS FL 33541","CAPACITY":139,"PHONE":"(813) 788-0411","TYPE":"Hospital","SUBTYPE":" ","OWNER":"FLORIDA HOSPITAL ZEPHYRHILLS INC","NUMBER":0,"VPARCEL":"35 25 21 0010 10500 0000","CALLOUT":12,"EASID":null,"created_user":"SDE","created_date":"Tue, 17 Apr 2018 13:49:16 GMT","last_edited_user":"DJOHNSON","last_edited_date":"Fri, 23 Jun 2023 13:04:51 GMT"}},{"type":"Feature","id":5,"geometry":{"type":"Point","coordinates":[-82.6602421551597,28.2041154629341]},"properties":{"OBJECTID":5,"NAME":"MEDICAL CENTER OF TRINITY","ADDRESS":"9330 SR 54","CITY":"TRINITY FL 34655","CAPACITY":236,"PHONE":"(727) 834-4900","TYPE":"Hospital","SUBTYPE":" ","OWNER":"NEW PORT RICHEY HOSPITAL INC","NUMBER":0,"VPARCEL":"24 26 16 0000 00100 0070","CALLOUT":4,"EASID":null,"created_user":"SDE","created_date":"Tue, 17 Apr 2018 13:49:16 GMT","last_edited_user":"DJOHNSON","last_edited_date":"Fri, 23 Jun 2023 13:04:12 GMT"}},{"type":"Feature","id":6,"geometry":{"type":"Point","coordinates":[-82.7208645436416,28.2346905455361]},"properties":{"OBJECTID":6,"NAME":"MEDICAL CENTER OF TRINITY WEST PASCO CAMPUS","ADDRESS":"5637 MARINE PKWY","CITY":"NEW PORT RICHEY FL 34652","CAPACITY":46,"PHONE":"(727) 834-5927","TYPE":"Hospital","SUBTYPE":" ","OWNER":"NEW PORT RICHEY HOSPITAL INC","NUMBER":0,"VPARCEL":"08 26 16 0010 04500 0030","CALLOUT":1,"EASID":null,"created_user":"SDE","created_date":"Tue, 17 Apr 2018 13:49:16 GMT","last_edited_user":"DJOHNSON","last_edited_date":"Fri, 23 Jun 2023 13:03:58 GMT"}},{"type":"Feature","id":7,"geometry":{"type":"Point","coordinates":[-82.7149090373816,28.2541794734586]},"properties":{"OBJECTID":7,"NAME":"MORTON PLANT NORTH BAY HOSPITAL","ADDRESS":"6600 MADISON ST","CITY":"NEW PORT RICHEY FL 34652","CAPACITY":154,"PHONE":"(727) 842-8468","TYPE":"Hospital","SUBTYPE":" ","OWNER":"MORTON PLANT HOSPITAL ASSOCIATION INC","NUMBER":0,"VPARCEL":"04 26 16 0040 00000 0360","CALLOUT":2,"EASID":null,"created_user":"SDE","created_date":"Tue, 17 Apr 2018 13:49:16 GMT","last_edited_user":"DJOHNSON","last_edited_date":"Fri, 23 Jun 2023 13:04:02 GMT"}},{"type":"Feature","id":8,"geometry":{"type":"Point","coordinates":[-82.4550633942965,28.1869856006992]},"properties":{"OBJECTID":8,"NAME":"MORTON PLANT NORTH BAY HOSPITAL RECOVERY CENTER","ADDRESS":"21808 STATE RD 54","CITY":"LUTZ FL 33549","CAPACITY":72,"PHONE":"(727) 843-8468","TYPE":"Hospital","SUBTYPE":" ","OWNER":"MORTON PLANT HOSPITAL ASSOCIATION INC","NUMBER":0,"VPARCEL":"25 26 18 0000 07700 0050","CALLOUT":8,"EASID":null,"created_user":"SDE","created_date":"Tue, 17 Apr 2018 13:49:16 GMT","last_edited_user":"DJOHNSON","last_edited_date":"Fri, 23 Jun 2023 13:04:31 GMT"}},{"type":"Feature","id":9,"geometry":{"type":"Point","coordinates":[-82.3238137673604,28.2010309741022]},"properties":{"OBJECTID":9,"NAME":"NORTH TAMPA BEHAVIORAL HEALTH","ADDRESS":"29910 SR 56","CITY":"WESLEY CHAPEL FL 33543","CAPACITY":75,"PHONE":"(813) 333-0000","TYPE":"Hospital","SUBTYPE":" ","OWNER":"TEN BROECK TAMPA INC","NUMBER":0,"VPARCEL":"20 26 20 0000 00100 0070","CALLOUT":10,"EASID":null,"created_user":"SDE","created_date":"Tue, 17 Apr 2018 13:49:16 GMT","last_edited_user":"DJOHNSON","last_edited_date":"Fri, 23 Jun 2023 13:04:42 GMT"}},{"type":"Feature","id":10,"geometry":{"type":"Point","coordinates":[-82.6887537732401,28.3621986616499]},"properties":{"OBJECTID":10,"NAME":"REGIONAL MEDICAL CENTER BAYONET POINT","ADDRESS":"14000 FIVAY RD","CITY":"HUDSON FL 34667","CAPACITY":290,"PHONE":"(727) 819-2929","TYPE":"Hospital","SUBTYPE":" ","OWNER":"HCA HEALTH SERVICES OF FLORIDA INC","NUMBER":0,"VPARCEL":"27 24 16 0000 00600 0020","CALLOUT":3,"EASID":null,"created_user":"SDE","created_date":"Tue, 17 Apr 2018 13:49:16 GMT","last_edited_user":"DJOHNSON","last_edited_date":"Fri, 23 Jun 2023 13:04:07 GMT"}},{"type":"Feature","id":11,"geometry":{"type":"Point","coordinates":[-82.4691794267966,28.1790125302517]},"properties":{"OBJECTID":11,"NAME":"LUTZ MEDICAL CENTER OF TRINITY","ADDRESS":"1430 DALE MABRY","CITY":"LUTZ, FL 33548","CAPACITY":0,"PHONE":"(813) 953-3900","TYPE":"Hospital","SUBTYPE":" ","OWNER":" ","NUMBER":0,"VPARCEL":"35 26 18 0000 06000 0010","CALLOUT":7,"EASID":null,"created_user":"MARNOLD","created_date":"Tue, 14 May 2019 17:32:50 GMT","last_edited_user":"DJOHNSON","last_edited_date":"Fri, 23 Jun 2023 13:04:26 GMT"}},{"type":"Feature","id":12,"geometry":{"type":"Point","coordinates":[-82.5408143339075,28.1918549543332]},"properties":{"OBJECTID":12,"NAME":"ADVENT HEALTH OF CENTRAL PASCO","ADDRESS":"16625 SR 54","CITY":"LAND O' LAKES, FL 33558","CAPACITY":0,"PHONE":"(813) 328-4999","TYPE":"Hospital","SUBTYPE":" ","OWNER":" ","NUMBER":0,"VPARCEL":"30 26 18 0030 00000 002A","CALLOUT":5,"EASID":null,"created_user":"MARNOLD","created_date":"Tue, 14 May 2019 17:42:54 GMT","last_edited_user":"DJOHNSON","last_edited_date":"Fri, 23 Jun 2023 13:04:18 GMT"}}]}